stop_name,parent_station,stop_id,stop_lat,stop_lon,location_type
's-Hertogenbosch,,27766,51.69054,5.293723,1
's-Hertogenbosch,27766,332717,51.69054,5.293723,
Aachen Hbf,226989,115198,50.7678,6.091499,
Aachen Süd(Gr),,165306,50.731915,6.04541,1
Aachen Süd(Gr),165306,274109,50.731915,6.04541,
"Aachen, Hauptbahnhof",,226989,50.767723,6.092051,1
Aalen Hauptbahnhof,,196806,48.841602,10.096031,1
Aalen Hbf,196806,324866,48.84168,10.09613,
Altena(Westf),420165,455900,51.301956,7.668576,
Altena(Westf),420165,508406,51.302013,7.668693,
"Altena, Bahnhof",,420165,51.301983,7.66881,1
Altenbeken,,101578,51.766434,8.943322,1
Altenbeken,101578,122753,51.766296,8.94298,
Amersfoort Centraal,,366082,52.153465,5.373909,1
Amersfoort Centraal,366082,387091,52.153465,5.373909,
Amsterdam Centraal,,639447,52.37919,4.899431,1
Amsterdam Centraal,639447,45626,52.37919,4.899431,
Amstetten NÖ,,349853,48.121605,14.878112,1
Amstetten NÖ,349853,373664,48.121605,14.878112,
Andernach,526393,329477,50.434544,7.404839,
Andernach Bahnhof,,526393,50.434544,7.40484,1
Angermünde,595600,224112,53.015793,13.995908,
Angermünde,595600,391,53.01574,13.995672,
"Angermünde, Bahnhof",,595600,53.015823,13.995871,1
Anklam,,161818,53.855984,13.701563,1
Anklam,161818,218328,53.8563,13.701554,
Anklam,161818,253325,53.85625,13.701518,
Ansbach,,268953,49.29803,10.578246,1
Ansbach,268953,371446,49.29889,10.577582,
Ansbach Bahnhof,268953,257436,49.299046,10.578031,
Ansbach Bahnhof,268953,267180,49.299145,10.578166,
Ansbach Bahnhof,268953,662802,49.299004,10.578067,
Apeldoorn,,290251,52.20943,5.968491,1
Apeldoorn,290251,183287,52.20943,5.968491,
Apolda,,153278,51.03094,11.526136,1
Apolda,153278,163580,51.03094,11.526136,
Arnhem Centraal,,616794,51.98478,5.901003,1
Arnhem Centraal,616794,393252,51.98478,5.901003,
Aschaffenburg Hbf,,574065,49.980556,9.1437,1
Aschaffenburg Hbf,574065,296369,49.980797,9.14343,
Aschaffenburg Hbf,574065,379789,49.98065,9.14343,
Attnang-Puchheim,,381061,48.012802,13.720719,1
Attnang-Puchheim,381061,341272,48.012802,13.720719,
Augsburg Hbf,,40685,48.36544,10.885569,1
Augsburg Hbf,40685,13902,48.365437,10.885291,
Augsburg Hbf,40685,226458,48.36546,10.885353,
Augsburg Hbf,40685,293857,48.3656,10.885713,
Augsburg Hbf,40685,390577,48.365673,10.885892,
Augsburg Hbf,40685,481437,48.365532,10.885533,
Augsburg Hbf,40685,670121,48.36544,10.88557,
Augustfehn,,114727,53.220894,7.759622,1
Augustfehn,114727,539383,53.220844,7.75963,
Bad Bentheim,365708,431287,52.309853,7.157776,
Bad Bentheim,365708,480805,52.30978,7.157785,
Bad Bentheim Bahnhof,,365708,52.30953,7.158737,1
Bad Bentheim(Gr),,106876,52.3091,7.04016,1
Bad Bentheim(Gr),106876,328546,52.3091,7.04016,
Bad Bevensen,,112564,53.078247,10.574141,1
Bad Bevensen,112564,569241,53.07822,10.574081,
Bad Bevensen,112564,63955,53.078274,10.574201,
Bad Endorf,,144636,47.904766,12.302122,1
Bad Endorf,144636,71762,47.90459,12.302679,
"Bad Endorf, Bahnhof",144636,151994,47.904682,12.302545,
Bad Gastein,,9152,47.111774,13.131945,1
Bad Gastein,9152,537599,47.111774,13.131945,
Bad Hersfeld,,162001,50.869766,9.716581,1
Bad Hersfeld,162001,663067,50.869766,9.716581,
Bad Hofgastein,,673592,47.195713,13.100939,1
Bad Hofgastein,673592,527336,47.195713,13.100939,
Bad Kleinen,617527,136686,53.766644,11.466456,
Bad Kleinen,617527,27931,53.766945,11.466213,
Bad Kleinen Bhf,,617527,53.76746,11.466429,1
Bad Nauheim,310071,590010,50.367695,8.749241,
Bad Nauheim Bahnhof,,310071,50.367798,8.748327,1
Bad Oeynhausen,332885,129466,52.205322,8.795944,
Bad Oeynhausen,332885,292453,52.205257,8.795962,
"Bad Oeynhausen, Bf/ZOB",,332885,52.2054,8.796519,1
Bad Schandau,4956,340140,50.919315,14.137713,
Bad Schandau,4956,484924,50.91921,14.137704,
Bad Schandau Nationalparkbahnhof,,4956,50.91927,14.138099,1
Bad Zwischenahn,,23461,53.182568,8.002996,1
Bad Zwischenahn,23461,554001,53.18242,8.003398,
Baden(CH),,254766,47.476425,8.307709,1
Baden(CH),254766,62933,47.476425,8.307709,
Baden-Baden,,613543,48.7902,8.191036,1
Baden-Baden,613543,167066,48.790478,8.190417,
Baden-Baden,613543,208565,48.7903,8.190803,
Baden-Baden,613543,571891,48.79032,8.190731,
"Bahnhof, Engen",655415,177671,47.85621,8.772516,
"Bahnhof, Friedberg (Hessen)",91706,487112,50.33204,8.760561,
Bamberg,,103098,49.90076,10.899484,1
Bamberg,103098,558237,49.900597,10.899735,
Bamberg,103098,592764,49.900547,10.899879,
Bamberg,103098,8624,49.900574,10.900122,
Basel Bad Bf,,443028,47.567287,7.607805,1
Basel Bad Bf,443028,432936,47.567287,7.607805,
Basel SBB,,229614,47.547405,7.589551,1
Basel SBB,229614,581993,47.547405,7.589551,
Bebra,,20379,50.969566,9.797788,1
Bebra,20379,492562,50.969566,9.797788,
Bensheim,353544,323421,49.681423,8.616721,
Bensheim,353544,7332,49.681328,8.616717,
Bensheim,353544,89783,49.68174,8.616901,
"Bensheim, Bahnhof",,353544,49.681805,8.616955,1
Bergen Bahnhof,,235793,54.420822,13.418737,1
Bergen auf Rügen,235793,327035,54.420414,13.417534,
Bergen auf Rügen,235793,443260,54.42034,13.417668,
Berlin Gesundbrunnen,409515,350247,52.548794,13.3904,
Berlin Gesundbrunnen,409515,376285,52.548485,13.390691,
Berlin Gesundbrunnen,409515,510914,52.548573,13.390519,
Berlin Gesundbrunnen,409515,58821,52.54869,13.390501,
Berlin Gesundbrunnen,409515,625274,52.548885,13.39039,
Berlin Gesundbrunnen,409515,63239,52.548386,13.390704,
Berlin Hbf,194006,117505,52.524967,13.369527,
Berlin Hbf,194006,141479,52.52519,13.369752,
Berlin Hbf,194006,182000,52.52496,13.368911,
Berlin Hbf,194006,207715,52.524998,13.369061,
Berlin Hbf,194006,242268,52.524788,13.369667,
Berlin Hbf,194006,254691,52.525143,13.369612,
Berlin Hbf,194006,355929,52.52488,13.369627,
Berlin Hbf,194006,426757,52.525223,13.369887,
Berlin Hbf,194006,472262,52.525097,13.369321,
Berlin Hbf,194006,5308,52.52506,13.369167,
Berlin Hbf,194006,656591,52.52511,13.369472,
Berlin Ostbahnhof,195151,23416,52.510254,13.435024,
Berlin Ostbahnhof,195151,384944,52.510414,13.435172,
Berlin Ostbahnhof,195151,515565,52.510475,13.43524,
Berlin Ostbahnhof,195151,561193,52.510242,13.434586,
Berlin Ostbahnhof,195151,591678,52.510178,13.434942,
Berlin Ostkreuz,326704,384313,52.502907,13.468553,
Berlin Ostkreuz,326704,592052,52.50304,13.468615,
Berlin Südkreuz,97797,130684,52.475887,13.365455,
Berlin Südkreuz,97797,20089,52.475685,13.365454,
Berlin Südkreuz,97797,431038,52.475433,13.365603,
Berlin Südkreuz,97797,44662,52.47565,13.365612,
Berlin Südkreuz,97797,469440,52.475925,13.365291,
Berlin Südkreuz,97797,538323,52.475407,13.365754,
Berlin Zoologischer Garten,340,178643,52.50768,13.332686,
Berlin Zoologischer Garten,340,273366,52.507717,13.332555,
Berlin Zoologischer Garten,340,53965,52.50762,13.332927,
Berlin Zoologischer Garten,340,570607,52.507652,13.332804,
Berlin-Charlottenburg,409720,281705,52.504173,13.301819,
Berlin-Lichtenberg,348438,269215,52.510277,13.497433,
Berlin-Lichtenberg,348438,580767,52.510002,13.49649,
Berlin-Lichtenberg,348438,65219,52.510216,13.496164,
Berlin-Spandau,483088,280277,52.534542,13.197124,
Berlin-Spandau,483088,404454,52.5346,13.197163,
Berlin-Spandau,483088,560381,52.534668,13.197191,
Berlin-Spandau,483088,62555,52.534485,13.1971,
Berlin-Wannsee,257812,245475,52.421402,13.180358,
Berlin-Wannsee,257812,246069,52.42135,13.180446,
Bern,,309073,46.948833,7.439131,1
Bern,309073,120046,46.948833,7.439131,
Bernau(b Berlin),72021,634706,52.67533,13.592016,
Bernau(b Berlin),72021,648018,52.675426,13.591859,
Biberach ZOB/Bahnhof,,225227,48.101456,9.792795,1
Biberach(Riß),225227,376101,48.101994,9.793155,
Biberach(Riß),225227,90751,48.101936,9.792939,
Bielefeld Hbf,,600497,52.029263,8.53272,1
Bielefeld Hbf,600497,530546,52.02962,8.532917,
Bielefeld Hbf,600497,669321,52.029522,8.533106,
Bingen(Rhein) Hbf,315046,545819,49.969147,7.882717,
"Bingen, Hauptbahnhof",,315046,49.96874,7.883543,1
Binz (Ostseebad),,188297,54.404823,13.600502,1
Bischofshofen,,630200,47.41786,13.219888,1
Bischofshofen,630200,609345,47.41786,13.219888,
Bitterfeld,,32515,51.62286,12.31685,1
Bitterfeld,32515,385618,51.62286,12.31685,
Bludenz,,443142,47.154724,9.814564,1
Bludenz,443142,412235,47.154724,9.814564,
Bochnia,,384187,49.9773,20.430775,1
Bochnia,384187,126399,49.9773,20.430775,
Bochum Hbf,,123900,51.479465,7.223335,1
Bochum Hbf,123900,177309,51.478394,7.222859,
Bochum Hbf,123900,297933,51.47853,7.222715,
Bochum Hbf,123900,342399,51.478252,7.223012,
Bohumin,,230385,49.90073,18.359444,1
Bohumin,230385,640184,49.90073,18.359444,
Bolzano/Bozen,,587121,46.496376,11.358791,1
Bolzano/Bozen,587121,529766,46.496376,11.358791,
Bondorf,,265940,48.52327,8.827879,1
Bondorf(b Herrenberg),265940,19239,48.52329,8.827852,
Bondorf(b Herrenberg),265940,652189,48.52328,8.827735,
Bonn Hbf,,459057,50.732006,7.097131,1
Bonn Hbf,459057,273046,50.731834,7.097284,
Bonn Hbf,459057,442877,50.731956,7.097364,
Boppard Hauptbahnhof,,648335,50.231403,7.586084,1
Boppard Hbf,648335,435658,50.231422,7.586014,
Brandenburg Hbf,632679,165777,52.400276,12.565075,
Brandenburg Hbf,632679,224249,52.40021,12.565134,
"Brandenburg, Hauptbahnhof",,632679,52.400795,12.566036,1
Bratislava hl.st.,,7895,48.15891,17.106466,1
Bratislava hl.st.,7895,445640,48.15891,17.106466,
Braunschweig Hbf,583475,329538,52.25223,10.540921,
Braunschweig Hbf,583475,476754,52.25227,10.54085,
"Braunschweig, Hauptbahnhof",,583475,52.252644,10.539547,1
Breclav,,101498,48.7539,16.893236,1
Breclav,101498,283218,48.7539,16.893236,
Breclav(Gr),,22753,48.71265,16.86837,1
Breclav(Gr),22753,512502,48.71265,16.86837,
Bregenz,,95943,47.503002,9.739627,1
Bregenz,95943,245967,47.503002,9.739627,
Bregenz Riedenburg,,637190,47.49291,9.721313,1
Bregenz Riedenburg,637190,437584,47.49291,9.721313,
Bremen Hbf,,441467,53.083256,8.813857,1
Bremen Hbf,441467,260421,53.08342,8.814067,
Bremen Hbf,441467,291492,53.0835,8.81418,
Bremen Hbf,441467,307964,53.083565,8.81426,
Bremen Hbf,441467,450515,53.082947,8.813447,
Bremen Hbf,441467,458590,53.083275,8.813879,
Bremen Hbf,441467,64819,53.083073,8.813611,
Bremen Hbf,441467,83740,53.083355,8.813982,
Brennero/Brenner,,220119,47.002342,11.505426,1
Brennero/Brenner,220119,428571,47.002342,11.505426,
Bressanone/Brixen,,493707,46.709896,11.649764,1
Bressanone/Brixen,493707,591641,46.709896,11.649764,
Brig,,603220,46.319424,7.988095,1
Brig,603220,546590,46.319424,7.988095,
Brno hl.n.,,151079,49.19054,16.612774,1
Brno hl.n.,151079,271975,49.19054,16.612774,
Bruchsal,,536712,49.124924,8.590347,1
Bruchsal,536712,324514,49.125088,8.590113,
Bruchsal,536712,618048,49.125053,8.590275,
Bruck/Mur,,334605,47.41383,15.279433,1
Bruck/Mur,334605,300735,47.41383,15.279433,
Brugg AG,,132127,47.48086,8.208845,1
Brugg AG,132127,226783,47.48086,8.208845,
Bruxelles Midi,,30049,50.835377,4.335694,1
Bruxelles Midi,30049,6850,50.835377,4.335694,
Bruxelles-Nord,,178104,50.860237,4.361454,1
Bruxelles-Nord,178104,602868,50.860237,4.361454,
Buchloe,,54066,48.033722,10.716219,1
Buchloe,54066,399960,48.033585,10.716273,
Buchloe,54066,613673,48.03355,10.716389,
Buchloe,54066,655707,48.033638,10.716084,
Budapest-Kelenföld,,421109,47.464355,19.020456,1
Budapest-Kelenföld,421109,310203,47.464355,19.020456,
Budapest-Keleti,,475843,47.50038,19.085072,1
Budapest-Keleti,475843,158881,47.50038,19.085072,
Budapest-Nyugati,,27255,47.510708,19.057467,1
Budapest-Nyugati,27255,236792,47.510708,19.057467,
Bydgoszcz Glowna,,310751,53.135113,17.991636,1
Bydgoszcz Glowna,310751,461185,53.135113,17.991636,
Böblingen,,653255,48.687847,9.004533,1
Böblingen,653255,467808,48.687847,9.004641,
Böblingen,653255,500510,48.688004,9.00438,
Büchen,193506,348312,53.474976,10.623292,
"Büchen, Büchen",,193506,53.47663,10.620937,1
Bünde(Westf),641750,446012,52.20239,8.574419,
Bünde(Westf),641750,521013,52.202274,8.574509,
"Bünde, Bahnhof / ZOB",,641750,52.202076,8.573871,1
Bützow,107837,249659,53.83715,11.998132,
Bützow,107837,477506,53.83704,11.997872,
Bützow Bahnhof,,107837,53.837006,11.997513,1
Celje,,569316,46.228558,15.26798,1
Celje,569316,195363,46.228558,15.26798,
Celle,553004,438815,52.620457,10.062468,
Celle Bahnhof,,553004,52.62075,10.064787,1
Ceska Trebova,,316870,49.897324,16.446808,1
Ceska Trebova,316870,605289,49.897324,16.446808,
Chemnitz Hbf,466980,454552,50.84013,12.930215,
Chemnitz Hbf,466980,457733,50.83933,12.930952,
Chemnitz Hbf,466980,509158,50.84002,12.930907,
Chemnitz Hbf,466980,63125,50.84004,12.930799,
"Chemnitz, Hauptbahnhof",,466980,50.83963,12.930692,1
Chur,,650330,46.853085,9.528938,1
Chur,650330,286581,46.853085,9.528938,
Coburg,,215485,50.262924,10.957326,1
Coburg,215485,170633,50.26347,10.957452,
Coburg,215485,542966,50.263447,10.957201,
Cottbus Hbf,407118,218709,51.751553,14.323517,
Cottbus Hbf,407118,571723,51.751488,14.323561,
"Cottbus, Hauptbahnhof",,407118,51.750984,14.324464,1
Crailsheim,40791,344342,49.138126,10.064572,
Crailsheim,40791,624765,49.13812,10.064814,
Crailsheim Bahnhof,,40791,49.137913,10.06432,1
Czechowice-Dziedzice,,319730,49.915104,19.00465,1
Czechowice-Dziedzice,319730,439833,49.915104,19.00465,
D-Flughafen Bf,,269262,51.292088,6.786979,1
Dagebüll Kirche,,305441,54.73058,8.729632,1
Dagebüll Kirche,305441,181501,54.73028,8.729485,
Dagebüll Mole,,246419,54.73011,8.690239,1
Dagebüll Mole,246419,490928,54.729908,8.690989,
Darmstadt Hauptbahnhof,,490230,49.87194,8.631148,1
Darmstadt Hbf,490230,444192,49.87304,8.629164,
Debica,,567369,50.054417,21.405565,1
Debica,567369,297175,50.054417,21.405565,
Decin hl.n.,,461040,50.773304,14.20111,1
Decin hl.n.,461040,333000,50.773415,14.201247,
Deezbüll,,531332,54.77697,8.818274,1
Deezbüll,531332,315505,54.77697,8.818274,
Delmenhorst,,666050,53.05278,8.629879,1
Delmenhorst,666050,33953,53.05279,8.629758,
Dessau Hbf,,113693,51.839867,12.234945,1
Dessau Hbf,113693,120047,51.839867,12.234945,
Deventer,,331986,52.257435,6.160506,1
Deventer,331986,434514,52.257435,6.160506,
Diepholz,,488619,52.6046,8.380249,1
Diepholz,488619,463452,52.604637,8.38013,
Diepholz,488619,648232,52.6046,8.380267,
Dillenburg,140162,533768,50.734905,8.294586,
Dillenburg Bahnhof,,140162,50.734905,8.294586,1
Doberlug-Kirchhain,424983,375556,51.620533,13.564268,
Doberlug-Kirchhain,424983,94133,51.62053,13.564161,
"Doberlug-Kirchhain, Bahnhof",,424983,51.62061,13.564187,1
Dobova,,370720,45.89839,15.655178,1
Dobova,370720,329115,45.89839,15.655178,
Dobova(Gr),,648384,45.890633,15.680238,1
Dobova(Gr),648384,22219,45.890633,15.680238,
Donaueschingen,479430,119131,47.94808,8.498727,
Donaueschingen,479430,534569,47.94801,8.4987,
Donaueschingen Bahnhof,,479430,47.94753,8.499428,1
Donauwörth,,65346,48.714024,10.771447,1
Donauwörth,65346,139581,48.71402,10.771564,
Donauwörth,65346,670632,48.71413,10.771654,
Dorfgastein,,333219,47.23867,13.103062,1
Dorfgastein,333219,222176,47.23867,13.103062,
Dornbirn,,489766,47.41769,9.738808,1
Dornbirn,489766,566748,47.41769,9.738808,
Dortmund Hbf,,152251,51.51689,7.459592,1
Dortmund Hbf,152251,110826,51.517723,7.458775,
Dortmund Hbf,152251,199019,51.518063,7.458685,
Dortmund Hbf,152251,49085,51.517883,7.458721,
Dortmund Hbf,152251,611977,51.51796,7.458703,
Dortmund Hbf,152251,673225,51.517895,7.45929,
Dortmund Hbf,152251,69384,51.5176,7.458793,
Dortmund Hörde Bf,,597774,51.488186,7.499918,1
Dortmund-Hörde,597774,411412,51.487774,7.500286,
Dresden Bahnhof Neustadt,,265782,51.065426,13.740882,1
Dresden Hauptbahnhof,,355727,51.03993,13.732932,1
Dresden Hbf,355727,172134,51.040016,13.731531,
Dresden Hbf,355727,232668,51.039875,13.731396,
Dresden Hbf,355727,318646,51.040684,13.731863,
Dresden-Neustadt,265782,131634,51.066017,13.740352,
Dresden-Neustadt,265782,195017,51.06591,13.740541,
Dresden-Neustadt,265782,208024,51.065994,13.740424,
Dresden-Neustadt,265782,442106,51.066097,13.740235,
Dresden-Neustadt,265782,605204,51.0659,13.740701,
Duisburg Hbf,,323412,51.430454,6.774528,1
Duisburg Hbf,323412,159370,51.429867,6.776882,
Duisburg Hbf,323412,225546,51.43,6.775696,
Duisburg Hbf,323412,303470,51.43001,6.775624,
Duisburg Hbf,323412,373042,51.42997,6.775902,
Duisburg Hbf,323412,493824,51.42987,6.776801,
Duisburg Hbf,323412,6982,51.429836,6.777088,
Duisburg Hbf,323412,73148,51.429787,6.775903,
Düren,,72753,50.809517,6.482451,1
Düren,72753,348228,50.809517,6.482451,
Düsseldorf Flughafen,269262,103661,51.292007,6.786836,
Düsseldorf Flughafen,269262,13883,51.29135,6.786853,
Düsseldorf Flughafen,269262,626537,51.291367,6.787158,
Düsseldorf Hbf,,635922,51.220253,6.792997,1
Düsseldorf Hbf,635922,284522,51.219543,6.794776,
Düsseldorf Hbf,635922,35760,51.219315,6.795261,
Düsseldorf Hbf,635922,391327,51.219505,6.794866,
Düsseldorf Hbf,635922,401230,51.219433,6.795027,
Düsseldorf Hbf,635922,454060,51.220093,6.793644,
Düsseldorf Hbf,635922,554098,51.219612,6.794632,
Düsseldorf Hbf,635922,59681,51.219963,6.794319,
Düsseldorf Hbf,635922,607964,51.219395,6.795099,
Eberswalde Hbf,560273,259086,52.83376,13.796866,
Eberswalde Hbf,560273,263096,52.833805,13.796755,
"Eberswalde, Hauptbahnhof",,560273,52.833683,13.79695,1
Eindhoven Centraal,,78153,51.44302,5.479576,1
Eindhoven Centraal,78153,163866,51.44302,5.479576,
Eisenach Hbf,613497,576009,50.975952,10.331229,
"Eisenach, Hbf",,613497,50.976894,10.331974,1
Ellwangen,417586,347525,48.96439,10.129664,
Ellwangen Bahnhof,,417586,48.964535,10.129762,1
Elsterwerda,68268,11778,51.46012,13.51666,
Elsterwerda,68268,240899,51.45942,13.516226,
Elsterwerda,68268,496386,51.459404,13.516305,
"Elsterwerda, Bahnhof",,68268,51.459805,13.516412,1
Emden Außenhafen,128167,330017,53.344498,7.186394,
Emden Hbf,486805,172107,53.36933,7.195423,
Emden(Ostfriesl) Außenhafen,,128167,53.344498,7.186394,1
Emden(Ostfriesl) Hbf,,486805,53.36925,7.195502,1
Emmerich(Gr),,39294,51.901196,6.137652,1
Emmerich(Gr),39294,303640,51.901196,6.137652,
Engen,655415,142501,47.856346,8.772786,
Engen,655415,644752,47.8561,8.772597,
Engen Bahnhof,,655415,47.856007,8.772561,1
"Erfurt, Hauptbahnhof",,365030,50.972057,11.037305,1
Ergenzingen,378900,140021,48.489243,8.809751,
Ergenzingen,378900,26,48.48959,8.810191,
Ergenzingen Bahnhof,,378900,48.489594,8.809949,1
Erkelenz,,663201,51.076595,6.321634,1
Erkelenz,663201,434435,51.076595,6.321634,
Erlangen,,660121,49.595825,11.00164,1
Erlangen,660121,290609,49.596188,11.001685,
Erlangen,660121,502895,49.596157,11.001488,
Erlangen,660121,674163,49.59583,11.001638,
Essen Hbf,,486071,51.449734,7.012213,1
Essen Hbf,486071,316747,51.451736,7.013938,
Essen Hbf,486071,391910,51.45159,7.013956,
Essen Hbf,486071,453546,51.45151,7.013974,
Essen Hbf,486071,510310,51.451363,7.014001,
Esslingen (N),,446930,48.73854,9.300582,1
Esslingen(Neckar),446930,305787,48.738544,9.300522,
Eutingen im Gäu,195541,279952,48.479736,8.782361,
Eutingen im Gäu Bahnhof,,195541,48.47957,8.781643,1
Feldkirch,,332862,47.24098,9.604102,1
Feldkirch,332862,397478,47.24098,9.604102,
Fieberbrunn,,254905,47.49114,12.528944,1
Fieberbrunn,254905,592867,47.49114,12.528944,
Finnentrop,97362,305225,51.1729,7.96467,
Finnentrop Bf,,97362,51.173046,7.964562,1
Fischen,,300164,47.456596,10.271723,1
"Fischen, Bahnhof",300164,155223,47.4566,10.271032,
Flensburg,,310666,54.774048,9.436687,1
Flensburg,310666,196736,54.773857,9.436511,
Flensburg,310666,528161,54.77395,9.436603,
Flensburg [Grenze],,344405,54.814842,9.36324,1
Flensburg(Gr),344405,273656,54.814842,9.36324,
"Flensburg, Flensburg",310666,421310,54.774227,9.436848,
Flughafen BER,,532914,52.364605,13.509874,1
Flughafen BER,532914,250098,52.364063,13.509307,
Flughafen BER,532914,402232,52.364323,13.509145,
Flughafen Köln/Bonn Bf,,618178,50.878902,7.119301,1
Flughafen Wien,,50231,48.120903,16.56307,1
Flughafen Wien,50231,562808,48.120903,16.56307,
Forbach(F),,663862,49.189217,6.900258,1
Forbach(F),663862,222261,49.189217,6.900258,
Forbach(fr),,459442,49.21409,6.944314,1
Forbach(fr),459442,506513,49.21409,6.944314,
Frankfurt (Main) Flughafen Fernbahnhof,,472324,50.052914,8.569788,1
Frankfurt (Main) Flughafen Regionalbahnhof,,45610,50.0512,8.571423,1
Frankfurt (Main) Hauptbahnhof,,259628,50.107155,8.663759,1
Frankfurt (Main) Südbahnhof,,473295,50.099327,8.686442,1
Frankfurt (Main) Westbahnhof,,317256,50.119446,8.639455,1
"Frankfurt (Oder), Bahnhof",,505329,52.336708,14.547147,1
Frankfurt(M) Flughafen Fernbf,472324,334825,50.053165,8.570177,
Frankfurt(M) Flughafen Regionalbf,45610,350679,50.0512,8.571423,
Frankfurt(M) Flughafen Regionalbf,45610,412961,50.05114,8.5712,
Frankfurt(Main)Hbf,259628,118069,50.10636,8.662772,
Frankfurt(Main)Hbf,259628,121577,50.10587,8.663474,
Frankfurt(Main)Hbf,259628,215108,50.106262,8.662941,
Frankfurt(Main)Hbf,259628,220030,50.107098,8.662068,
Frankfurt(Main)Hbf,259628,244006,50.106148,8.663123,
Frankfurt(Main)Hbf,259628,269750,50.104183,8.659307,
Frankfurt(Main)Hbf,259628,35092,50.10662,8.662561,
Frankfurt(Main)Hbf,259628,398065,50.106003,8.663306,
Frankfurt(Main)Hbf,259628,408279,50.106686,8.662504,
Frankfurt(Main)Hbf,259628,419448,50.107033,8.662124,
Frankfurt(Main)Hbf,259628,420791,50.106102,8.663151,
Frankfurt(Main)Hbf,259628,424613,50.1062,8.663011,
Frankfurt(Main)Hbf,259628,441880,50.10696,8.662195,
Frankfurt(Main)Hbf,259628,449314,50.1069,8.662237,
Frankfurt(Main)Hbf,259628,455239,50.10577,8.663461,
Frankfurt(Main)Hbf,259628,457716,50.1063,8.662814,
Frankfurt(Main)Hbf,259628,468443,50.10647,8.662687,
Frankfurt(Main)Hbf,259628,599273,50.10652,8.662645,
Frankfurt(Main)Hbf,259628,642228,50.106754,8.662378,
Frankfurt(Main)Hbf,259628,87700,50.10681,8.66235,
Frankfurt(Main)Süd,473295,181150,50.099003,8.686179,
Frankfurt(Main)Süd,473295,242705,50.099064,8.686108,
Frankfurt(Main)Süd,473295,415343,50.099205,8.685283,
Frankfurt(Main)West,317256,605810,50.11939,8.638952,
Frankfurt(Oder),505329,11240,52.336643,14.54624,
Frankfurt(Oder),505329,167109,52.336563,14.545988,
Frankfurt(Oder),505329,308703,52.336605,14.546146,
Frankfurt(Oder)(Gr),,645723,52.321175,14.576403,1
Frankfurt(Oder)(Gr),645723,21281,52.321175,14.576403,
Fredericia st,,542892,55.56809,9.738813,1
Fredericia st,542892,163052,55.56809,9.738813,
Freiberg(Sachs),256773,240331,50.908737,13.344644,
Freiberg(Sachs),256773,240914,50.908634,13.344572,
"Freiberg, Bahnhof",,256773,50.90936,13.342219,1
Freiburg Hauptbahnhof,,128038,47.996616,7.840442,1
Freiburg(Breisgau) Hbf,128038,317988,47.99773,7.841511,
Freiburg(Breisgau) Hbf,128038,319491,47.997765,7.841295,
Freiburg(Breisgau) Hbf,128038,326007,47.997704,7.841619,
Freiburg(Breisgau) Hbf,128038,394057,47.997696,7.84117,
Freilassing,,671295,47.836914,12.977197,1
Freilassing,671295,487063,47.83703,12.976586,
Freilassing,671295,514600,47.836205,12.977997,
Freilassing Bahnhof,671295,378674,47.83622,12.977907,
Frick,,141433,47.507164,8.01268,1
Frick,141433,201929,47.507164,8.01268,
Friedberg (Hessen) Bahnhof,,91706,50.332745,8.761246,1
Friedrichsh. Stadtbahnhof,,572163,47.653057,9.473426,1
Friedrichshafen Stadt,572163,195862,47.653084,9.473498,
Fulda,618652,230149,50.555016,9.683904,
Fulda Bahnhof,,618652,50.55492,9.683761,1
Fürth (Bay) Hbf,,586005,49.469707,10.989989,1
Fürth Hauptbahnhof,586005,632283,49.470367,10.991229,
Fürth(Bay)Hbf,586005,277028,49.469738,10.990079,
"GD, Bahnhof",,411759,48.800285,9.787118,1
Garmisch-Partenkirchen,,591148,47.491455,11.097014,1
Garmisch-Partenkirchen,591148,160770,47.491116,11.098326,
Garmisch-Partenkirchen,591148,560307,47.49107,11.098209,
Garmisch-Partenkirchen,591148,71143,47.49119,11.098515,
Gdansk Glowny,,516388,54.35552,18.643803,1
Gdansk Glowny,516388,21267,54.35552,18.643803,
Gdansk Oliwa,,130626,54.409893,18.571741,1
Gdansk Oliwa,130626,673348,54.409893,18.571741,
Gdansk Wrzeszcz,,373124,54.38186,18.605434,1
Gdansk Wrzeszcz,373124,631024,54.38186,18.605434,
Gdynia Glowna,,283331,54.52084,18.529556,1
Gdynia Glowna,283331,601241,54.52084,18.529556,
Geilenkirchen,,654535,50.96104,6.124518,1
Geilenkirchen,654535,297808,50.96104,6.124518,
Gelsenkirchen Hbf,,95821,51.504925,7.102206,1
Gelsenkirchen Hbf,95821,293690,51.50487,7.103141,
Gelsenkirchen Hbf,95821,379810,51.505142,7.103015,
Gelsenkirchen Hbf,95821,415291,51.5049,7.102455,
Gelsenkirchen Hbf,95821,444156,51.50504,7.103051,
Gelsenkirchen Hbf,95821,504064,51.504814,7.103177,
Gelsenkirchen Hbf,95821,557012,51.504982,7.103087,
Geltendorf,,119565,48.106358,11.036531,1
Geltendorf,119565,437999,48.10599,11.037455,
Gera Hbf,,163427,50.88342,12.077098,1
Gera Hbf,163427,400075,50.883423,12.077092,
Gießen,302315,607831,50.579884,8.663799,
Gießen Bahnhof,,302315,50.579884,8.663799,1
Gliwice,,573548,50.301105,18.677158,1
Gliwice,573548,383941,50.301105,18.677158,
Glogow,,307356,51.668957,16.079712,1
Glogow,307356,259011,51.668957,16.079712,
Gniezno,,493693,52.52965,17.602184,1
Gniezno,493693,483159,52.52965,17.602184,
Golling-Abtenau,,429652,47.600574,13.164086,1
Golling-Abtenau,429652,377514,47.600574,13.164086,
Gotha,,525207,50.93905,10.712328,1
Gotha,525207,524446,50.93907,10.712568,
Graz Hbf,,112032,47.072296,15.416437,1
Graz Hbf,112032,137973,47.072296,15.416437,
Greifswald,,289649,54.092926,13.370264,1
Greifswald,289649,351073,54.092854,13.370516,
Greifswald,289649,592512,54.092815,13.370453,
Greifswald,289649,620817,54.092922,13.370262,
Györ,,397469,47.68198,17.63479,1
Györ,397469,513136,47.68198,17.63479,
Gäufelden,,671620,48.559715,8.850103,1
Gäufelden,671620,640403,48.559734,8.85004,
Göppingen,,460598,48.70012,9.652344,1
Göppingen,460598,516011,48.699856,9.652146,
Göttingen,,589394,51.53672,9.925875,1
Göttingen,589394,125675,51.536865,9.92561,
Göttingen,589394,247575,51.536682,9.926424,
Göttingen,589394,283134,51.53667,9.925681,
Göttingen,589394,662979,51.53698,9.925599,
Göttingen,589394,84646,51.53674,9.925647,
Günzburg,,277860,48.460564,10.27926,1
Günzburg,277860,258591,48.46052,10.27926,
Günzburg,277860,424396,48.460575,10.279224,
Gütersloh Hbf,61060,173198,51.906822,8.384893,
Gütersloh Hbf,61060,578972,51.90686,8.38483,
"Gütersloh, Hbf/ZOB",,61060,51.906944,8.385072,1
HER Wanne-Eickel Hbf,,57963,51.531254,7.16578,1
Hagen Hbf,,383267,51.361965,7.461802,1
Hagen Hbf,383267,343750,51.362747,7.460249,
Hagen Hbf,383267,473315,51.362637,7.460589,
Hagen Hbf,383267,535775,51.36264,7.46049,
Hagen Hbf,383267,571135,51.363895,7.460697,
Hagen Hbf,383267,652221,51.363895,7.460877,
Hagen Hbf,383267,81732,51.36179,7.460302,
Halle(Saale)Hbf,,595207,51.47751,11.987085,1
Halle(Saale)Hbf,595207,381278,51.47751,11.987085,
Hallein,,206126,47.68517,13.099434,1
Hallein,206126,385478,47.68517,13.099434,
Hamburg Dammtor,534823,188733,53.560757,9.989569,
Hamburg Hbf,409759,302864,53.552357,10.007322,
Hamburg Hbf,409759,427814,53.552383,10.007493,
Hamburg Hbf,409759,498675,53.55187,10.007726,
Hamburg Hbf,409759,535232,53.55274,10.006905,
"Hamburg, Bergedorf",,186149,53.489857,10.205968,1
"Hamburg, Hamburg Dammtor",,534823,53.560783,9.989403,1
"Hamburg, Hamburg Hbf",,409759,53.552753,10.007925,1
"Hamburg, Hamburg-Altona",,125552,53.55325,9.935405,1
"Hamburg, Hamburg-Harburg",,452145,53.456375,9.990947,1
Hamburg-Altona,125552,530407,53.552692,9.935181,
Hamburg-Bergedorf,186149,141932,53.48963,10.205985,
Hamburg-Bergedorf,186149,384082,53.489754,10.206372,
Hamburg-Bergedorf,186149,440924,53.48955,10.206101,
Hamburg-Harburg(S),452145,30505,53.455902,9.991704,
"Hamm (Westf), Hauptbahnhof",,169548,51.678078,7.807824,1
Hamm(Westf)Hbf,169548,210546,51.678474,7.807276,
Hamm(Westf)Hbf,169548,321464,51.67856,7.807896,
Hamm(Westf)Hbf,169548,363866,51.678513,7.807617,
Hamm(Westf)Hbf,169548,441119,51.678616,7.808291,
Hamm(Westf)Hbf,169548,47721,51.678593,7.808121,
Hamm(Westf)Hbf,169548,489558,51.678436,7.807007,
Hamm(Westf)Hbf,169548,521373,51.6785,7.807492,
Hamm(Westf)Hbf,169548,82047,51.678078,7.807821,
Hanau Hauptbahnhof,,568041,50.121346,8.928415,1
Hanau Hbf,568041,371210,50.121346,8.928415,
Hannover Hauptbahnhof/E.-A.-Pl,,422038,52.375748,9.740702,1
Hannover Hbf,422038,618246,52.376762,9.741021,
Hannover Messe / Laatzen,,48602,52.317486,9.792149,1
Hannover Messe/Laatzen,48602,420287,52.317005,9.792903,
Hannover Messe/Laatzen,48602,452785,52.3169,9.792863,
Hannover Messe/Laatzen,48602,507606,52.316975,9.792607,
Hauptbahnhof,365030,409986,50.97211,11.037261,
Hauptbahnhof (oben),,206091,48.784878,9.182794,1
Hauptbahnhof A1,200391,202863,54.315235,10.131234,
Hegyeshalom,,563122,47.913975,17.145296,1
Hegyeshalom,563122,359435,47.913975,17.145296,
Hegyeshalom(Gr),,146293,47.93826,17.095844,1
Hegyeshalom(Gr),146293,509933,47.93826,17.095844,
Heide(Holst),,663680,54.192932,9.101242,1
Heide(Holst),663680,383343,54.19306,9.101122,
Heide(Holst),663680,642898,54.19317,9.100833,
Heidelberg Hbf,543110,165226,49.40351,8.674815,
Heidelberg Hbf,543110,268518,49.40359,8.67451,
Heidelberg Hbf,543110,32682,49.403843,8.675138,
Heidelberg Hbf,543110,336929,49.404106,8.675013,
Heidelberg Hbf,543110,50823,49.403625,8.674905,
Heidelberg Hbf,543110,603206,49.40382,8.674716,
Heidelberg Hbf,543110,620712,49.40392,8.674851,
"Heidelberg, Hauptbahnhof",,543110,49.404316,8.676243,1
"Helmstedt, Bahnhof",,405428,52.22207,11.010093,1
"Helmstedt, Bahnhof",405428,395848,52.222286,11.009869,
"Helmstedt, Bahnhof",405428,58284,52.222256,11.009923,
Hengelo,,675837,52.261852,6.793726,1
Hengelo,675837,187043,52.261852,6.793726,
Herford,253237,138149,52.11952,8.663236,
Herford,253237,177109,52.119453,8.663415,
"Herford, Bahnhof",,253237,52.11961,8.66364,1
Hermsdorf-Klosterlausnitz,,188809,50.90385,11.858619,1
Hermsdorf-Klosterlausnitz,188809,441355,50.903778,11.858626,
Herrenberg,,282436,48.593956,8.862626,1
Herrenberg,282436,144325,48.594112,8.862716,
Herrenberg,282436,297922,48.593933,8.862895,
Hildesheim Hauptbahnhof,,633662,52.159668,9.952588,1
Hildesheim Hbf,633662,249311,52.160027,9.952812,
Hildesheim Hbf,633662,404819,52.160275,9.952633,
Hilversum,,592782,52.22667,5.181399,1
Hilversum,592782,194070,52.22667,5.181399,
Hochfilzen,,570636,47.467712,12.626525,1
Hochfilzen,570636,463955,47.467712,12.626525,
Hohenems,,183970,47.364708,9.681001,1
Hohenems,183970,280304,47.364708,9.681001,
Homburg (Saar) Hbf,,331164,49.32808,7.337035,1
Homburg(Saar)Hbf,331164,454041,49.327587,7.33657,
Homburg(Saar)Hbf,331164,545014,49.327637,7.336362,
Hopfgarten im Brixental,,608892,47.455353,12.14918,1
Hopfgarten im Brixental,608892,301278,47.455353,12.14918,
Horb,593232,223986,48.44146,8.688829,
Horb,593232,362679,48.441597,8.688775,
Horb Bahnhof/ZOB,,593232,48.441853,8.688892,1
Hude,30807,178542,53.10937,8.461016,
Hude(Oldb),,30807,53.10937,8.460953,1
Husum,,619002,54.472015,9.056272,1
Husum,619002,569801,54.472088,9.055957,
Immenstadt,,401850,47.559204,10.213997,1
"Immenstadt, Bahnhof",401850,296384,47.559406,10.212785,
"Immenstadt, Bahnhof",401850,583970,47.559464,10.212461,
Imst-Pitztal,,449652,47.219074,10.76167,1
Imst-Pitztal,449652,211803,47.219074,10.76167,
Ingolstadt Hbf,,301575,48.74455,11.437341,1
Ingolstadt Hbf,301575,135404,48.745197,11.436111,
Ingolstadt Hbf,301575,490678,48.744904,11.436021,
Ingolstadt Hbf,301575,651243,48.74454,11.437337,
"Ingolstadt, Hauptbahnhof",301575,413767,48.745193,11.435967,
Innsbruck Hauptbahnhof,,403048,47.263332,11.40051,1
Innsbruck Hbf,403048,385431,47.263237,11.401028,
Inowroclaw,,140292,52.804947,18.24406,1
Inowroclaw,140292,216189,52.804947,18.24406,
Interlaken Ost,,490652,46.6905,7.869,1
Interlaken Ost,490652,192293,46.6905,7.869,
Interlaken West,,347205,46.68295,7.851366,1
Interlaken West,347205,182367,46.68295,7.851366,
"Iserl., Letmathe Bf",,396148,51.362835,7.618396,1
Itzehoe,,369591,53.92408,9.510151,1
Itzehoe,369591,56054,53.923794,9.510167,
Jaroslaw,,620567,50.01067,22.677896,1
Jaroslaw,620567,119302,50.01067,22.677896,
Jena Paradies,,297799,50.924854,11.587468,1
Jena Paradies,297799,239697,50.924854,11.587461,
Jena West,,82991,50.923286,11.57785,1
Jena West,82991,400648,50.923286,11.577848,
Jena-Göschwitz,,221351,50.8838,11.593217,1
Jena-Göschwitz,221351,515252,50.88394,11.593537,
Jenbach,,486913,47.388447,11.778454,1
Jenbach,486913,558200,47.388447,11.778454,
Jesenice(Gr),,361364,46.48141,14.020333,1
Jesenice(Gr),361364,466824,46.48141,14.020333,
Jesenice(SL),,595155,46.436325,14.054913,1
Jesenice(SL),595155,418487,46.436325,14.054913,
Jüterbog,27305,177984,51.997135,13.053549,
"Jüterbog, Bahnhof",,27305,51.997562,13.054871,1
Kaiserslautern Hbf,127714,543483,49.435856,7.768559,
Kaiserslautern Hbf,127714,72775,49.435905,7.768532,
"Kaiserslautern, Hbf",,127714,49.436264,7.768253,1
Kapfenberg,,230608,47.44512,15.292088,1
Kapfenberg,230608,118978,47.44512,15.292088,
Karlsruhe Hauptbahnhof,,141893,48.993347,8.401036,1
Karlsruhe Hbf,141893,171219,48.993355,8.401269,
Karlsruhe Hbf,141893,251922,48.99332,8.401422,
Karlsruhe Hbf,141893,302294,48.993732,8.401071,
Karlsruhe Hbf,141893,334763,48.993675,8.401116,
Karlsruhe Hbf,141893,383755,48.993515,8.402181,
Karlsruhe Hbf,141893,436884,48.99302,8.401575,
Karlsruhe Hbf,141893,500416,48.993557,8.401179,
Karlsruhe Hbf,141893,531926,48.993473,8.401179,
Karlsruhe Hbf,141893,564084,48.992954,8.40161,
Karlsruhe Hbf,141893,614610,48.99313,8.401503,
Karlsruhe Hbf,141893,75323,48.99385,8.401009,
Karlsruhe-Durlach,,514432,49.00225,8.462759,1
Karlsruhe-Durlach,514432,109573,49.00207,8.462597,
Karlsruhe-Durlach,514432,157293,49.002155,8.462328,
Karlsruhe-Durlach,514432,385126,49.002167,8.462489,
Kassel Bahnhof Wilhelmshöhe,,383009,51.31313,9.44705,1
Kassel Hauptbahnhof,,11136,51.31809,9.490313,1
Kassel Hbf,11136,431362,51.31826,9.489501,
Kassel-Wilhelmshöhe,383009,459337,51.312435,9.448181,
Katowice,,236969,50.257515,19.017164,1
Katowice,236969,570465,50.257515,19.017164,
Kaufbeuren,,307216,47.87543,10.629495,1
"Kaufbeuren, Bahnhof",307216,39112,47.875595,10.628795,
"Kaufbeuren, Bahnhof",307216,409884,47.87554,10.628714,
Kedzierzyn Kozle,,584887,50.34436,18.204765,1
Kedzierzyn Kozle,584887,650444,50.34436,18.204765,
Kehl,290951,569778,48.576656,7.806556,
Kehl Bahnhof,,290951,48.57667,7.806818,1
Kehl(Gr),,345211,48.575645,7.801118,1
Kehl(Gr),345211,279464,48.575645,7.801118,
Keitum,,65808,54.888996,8.368841,1
Keitum,65808,421664,54.888973,8.368772,
Kempten (Allgäu) Hbf,,84158,47.711746,10.317618,1
Kempten(Allgäu)Hbf,84158,239662,47.7118,10.317645,
Kiel Hauptbahnhof,,200391,54.315582,10.131145,1
Kirchberg in Tirol,,103115,47.448917,12.309101,1
Kirchberg in Tirol,103115,125385,47.448917,12.309101,
Kitzbühel,,663101,47.45411,12.391045,1
Kitzbühel,663101,335973,47.45411,12.391045,
Kitzbühel Hahnenkamm,,182270,47.44339,12.389856,1
Kitzbühel Hahnenkamm,182270,133179,47.44339,12.389856,
Klagenfurt Hbf,,613018,46.615585,14.313569,1
Klagenfurt Hbf,613018,579772,46.615585,14.313569,
Klanxbüll,,231393,54.86234,8.675999,1
Klanxbüll,231393,88890,54.862103,8.676329,
Koblenz Hauptbahnhof,,169133,50.350925,7.588339,1
Koblenz Hauptbahnhof,169133,128649,50.35007,7.590414,
Koblenz Hauptbahnhof,169133,194245,50.350533,7.590459,
Koblenz Hbf,169133,630272,50.35093,7.588345,
Koebenhavn H,,511152,55.67272,12.564617,1
Koebenhavn H,511152,215070,55.67272,12.564617,
Koebenhavn Syd,,647448,55.65242,12.516317,1
Koebenhavn Syd,647448,215307,55.65242,12.516317,
Kolding st,,579231,55.49084,9.481528,1
Kolding st,579231,466595,55.49084,9.481528,
Kolin(CZ),,399934,50.025436,15.214279,1
Kolin(CZ),399934,670464,50.025436,15.214279,
Konin,,238884,52.231396,18.253336,1
Konin,238884,578598,52.231396,18.253336,
Konstanz,322849,191054,47.658752,9.177312,
Konstanz,322849,40190,47.658836,9.177414,
Konstanz Bahnhof,,322849,47.658794,9.17727,1
Kornwestheim,,577888,48.86216,9.179965,1
Kornwestheim Pbf,577888,139567,48.86222,9.179964,
Korsoer st,,670381,55.3572,11.135125,1
Korsoer st,670381,603649,55.3572,11.135125,
Krakow Glowny,,422156,50.067196,19.947426,1
Krakow Glowny,422156,201252,50.067196,19.947426,
Krakow Plaszow,,558284,50.03509,19.974894,1
Krakow Plaszow,558284,370096,50.03509,19.974894,
Kranj,,586781,46.23901,14.348167,1
Kranj,586781,355167,46.23901,14.348167,
Kreuztal,24442,349621,50.955246,7.992805,
Kreuztal,24442,495652,50.95596,7.991961,
Kreuztal Bf,,24442,50.956024,7.991691,1
Kronach,,235401,50.23961,11.320111,1
Kronach,235401,360336,50.239956,11.320165,
Kronach,235401,486630,50.239956,11.320291,
Krsko,,245535,45.95624,15.493454,1
Krsko,245535,47194,45.95624,15.493454,
Krumpendorf/Wörthersee,,58794,46.62633,14.221512,1
Krumpendorf/Wörthersee,58794,459271,46.62633,14.221512,
Kufstein,,385546,47.58308,12.16555,1
Kufstein,385546,363503,47.58308,12.16555,
Kutno,,161935,52.226963,19.348616,1
Kutno,161935,67789,52.226963,19.348616,
Kuty,,34134,48.661892,17.047695,1
Kuty,34134,50374,48.661892,17.047695,
Kuty(Gr),,561689,48.71108,17.000406,1
Kuty(Gr),561689,94054,48.71108,17.000406,
Köln Hbf,,8204,50.94303,6.958727,1
Köln Hbf,8204,114660,50.94323,6.958332,
Köln Hbf,8204,169026,50.943134,6.95809,
Köln Hbf,8204,170779,50.9433,6.958485,
Köln Hbf,8204,238599,50.94303,6.958729,
Köln Hbf,8204,436004,50.943333,6.958566,
Köln Hbf,8204,545712,50.943497,6.958943,
Köln Hbf,8204,592364,50.943195,6.958251,
Köln Hbf,8204,69463,50.9434,6.958719,
Köln Hbf,8204,70174,50.943436,6.958808,
Köln Messe/Deutz,530413,224717,50.940876,6.975921,
Köln Messe/Deutz,530413,595608,50.940674,6.975858,
Köln Messe/Deutz Bf,,530413,50.940876,6.974996,1
Köln Messe/Deutz Gl.11-12,530413,273842,50.9416,6.973954,
Köln Messe/Deutz Gl.11-12,530413,291653,50.941723,6.974067,
Köln Messe/Deutz Gl.11-12,530413,294750,50.941566,6.973855,
Köln Süd,201024,272021,50.92764,6.937572,
Köln Süd Bf,,201024,50.9273,6.938048,1
Köln/Bonn Flughafen,618178,112260,50.879063,7.11958,
Köln/Bonn Flughafen,618178,389767,50.879154,7.119158,
Königs Wusterhausen,96925,554269,52.29666,13.63135,
Köthen,,117739,51.75193,11.989358,1
Köthen,117739,91014,51.75193,11.989358,
Lahr(Schwarzw),,258668,48.340958,7.835572,1
Lahr(Schwarzw),258668,541935,48.340958,7.835572,
Lancut,,159704,50.08143,22.227507,1
Lancut,159704,6919,50.08143,22.227507,
Landeck-Zams,,572075,47.148243,10.578392,1
Landeck-Zams,572075,514960,47.148243,10.578392,
Landquart,,282778,46.96744,9.554045,1
Landquart,282778,48746,46.96744,9.554045,
Landstuhl,363066,451500,49.416283,7.56624,
"Landstuhl, Bahnhof",,363066,49.416332,7.566159,1
Langen am Arlberg,,616592,47.13172,10.120375,1
Langen am Arlberg,616592,209696,47.13172,10.120375,
Langenhagen Bahnhof Mitte,,254519,52.44028,9.726024,1
Langenhagen Mitte,254519,133030,52.440155,9.725539,
Langenhagen Mitte,254519,648041,52.440178,9.725413,
Leer(Ostfriesl),,190540,53.23141,7.465229,1
Leer(Ostfriesl),190540,276670,53.231438,7.46537,
Legnica,,426133,51.21385,16.168922,1
Legnica,426133,182501,51.21385,16.168922,
Leipzig Hbf,,336338,51.34547,12.382064,1
Leipzig Hbf,336338,462858,51.34547,12.382064,
Leipzig/Halle Flughafen,,595348,51.42334,12.223426,1
Leipzig/Halle Flughafen,595348,297592,51.42334,12.223426,
Lennestadt-Altenhundem,332805,403987,51.103645,8.071282,
Lennestadt-Altenhundem Bf,,332805,51.10413,8.071516,1
Lennestadt-Grevenbrück,632740,118715,51.141613,8.018227,
Lennestadt-Grevenbrück,632740,566543,51.14155,8.018138,
Lennestadt-Grevenbrück Bf,,632740,51.141777,8.017976,1
Leoben Hbf,,486121,47.386604,15.089603,1
Leoben Hbf,486121,227749,47.386604,15.089603,
Lesce-Bled,,563367,46.360416,14.157971,1
Lesce-Bled,563367,548282,46.360416,14.157971,
Letmathe,396148,209943,51.362705,7.618091,
Letmathe,396148,659373,51.362785,7.61801,
Lichtenfels,,169463,50.146454,11.059474,1
Lichtenfels Bahnhof,169463,503196,50.14574,11.05995,
Lichtenfels Bahnhof,169463,585022,50.146103,11.06039,
Liestal,,553970,47.484375,7.731353,1
Liestal,553970,513751,47.484375,7.731353,
Liezen,,307968,47.56271,14.241886,1
Liezen,307968,73745,47.56271,14.241886,
Limburg (Lahn) Süd (ICE),,144688,50.38191,8.095532,1
Limburg Süd,144688,292302,50.382423,8.09593,
Limburg Süd,144688,31555,50.3819,8.095546,
Lindau-Reutin,,238920,47.552383,9.703287,1
Lindau-Reutin,238920,141678,47.552383,9.703292,
Lingen(Ems),239538,314958,52.519867,7.321731,
"Lingen, Bahnhof",,239538,52.51964,7.32127,1
Linz Hbf,,431666,48.29018,14.292131,1
Linz Hbf,431666,350309,48.29018,14.292131,
Lippstadt,182140,100271,51.67074,8.349113,
Lippstadt,182140,462396,51.670666,8.348161,
"Lippstadt, Bustreff Bahnhof",,182140,51.67069,8.348781,1
Liège-Guillemins,,61083,50.62436,5.566483,1
Liège-Guillemins,61083,458525,50.62436,5.566483,
Ljubljana,,187830,46.05869,14.512937,1
Ljubljana,187830,519154,46.05869,14.512937,
Lubin,,8064,51.39612,16.193586,1
Lubin,8064,175143,51.39612,16.193586,
Ludwigsburg,,603949,48.892082,9.185229,1
Ludwigsburg,603949,540374,48.892147,9.185409,
Ludwigshafen(Rh)Hbf,575786,187,49.47522,8.432333,
"Ludwigshafen, Hauptbahnhof",,575786,49.476994,8.433321,1
Ludwigslust,325861,555821,53.334885,11.49398,
Ludwigslust,325861,609322,53.335007,11.494151,
Ludwigslust,325861,647479,53.33467,11.494491,
Ludwigslust,325861,661137,53.335045,11.494205,
Ludwigslust Bahnhof,,325861,53.334454,11.494384,1
Ludwigsstadt,,319452,50.486584,11.382993,1
Ludwigsstadt Bahnhof,319452,90680,50.48694,11.383083,
Lunderskov st,,202183,55.48012,9.303791,1
Lunderskov st,202183,28519,55.48012,9.303791,
Lutherstadt Wittenberg Hbf,,509115,51.86781,12.662285,1
Lutherstadt Wittenberg Hbf,509115,454114,51.86781,12.662285,
Lübben(Spreewald),465962,498367,51.93978,13.877006,
Lübben(Spreewald),465962,538872,51.939842,13.877132,
"Lübben, Bahnhof",,465962,51.939842,13.877383,1
Lübbenau(Spreewald),599798,332015,51.862095,13.961176,
Lübbenau(Spreewald),599798,451572,51.862026,13.961095,
"Lübbenau, Bahnhof",,599798,51.862114,13.962173,1
Lübeck Hbf,,203513,53.867214,10.668884,1
Lübeck Hbf,203513,315953,53.8676,10.668868,
Lüneburg,,556512,53.249966,10.419999,1
Lüneburg,556512,154147,53.24966,10.419892,
Lüneburg,556512,447980,53.249535,10.419739,
Lüneburg,556512,513485,53.24953,10.419999,
MG Hbf /Europaplatz,,255332,51.196583,6.446113,1
MG Rheydt Hbf,,456722,51.163162,6.441055,1
Maasbüll(b Niebüll),,569476,54.754414,8.812732,1
Maasbüll(b Niebüll),569476,663845,54.754414,8.812732,
Magdeburg Hbf,,459666,52.130512,11.626963,1
Magdeburg Hbf,459666,432335,52.130512,11.626963,
Mainz Hbf,668661,346025,50.001118,8.25872,
"Mainz, Hauptbahnhof",,668661,50.00145,8.258419,1
Mallnitz-Obervellach,,444152,46.981213,13.176498,1
Mallnitz-Obervellach,444152,619853,46.981213,13.176498,
Mannheim Hbf,625082,253795,49.47923,8.470026,
Mannheim Hbf,625082,373258,49.479355,8.468921,
Mannheim Hbf,625082,486006,49.479076,8.46982,
Mannheim Hbf,625082,532561,49.479134,8.4699,
Mannheim Hbf,625082,617653,49.47901,8.469757,
Mannheim Hbf,625082,658580,49.47928,8.47008,
Mannheim Hbf,625082,70862,49.478836,8.469559,
"Mannheim, Hauptbahnhof",,625082,49.479748,8.469936,1
Marburg Hauptbahnhof,,298734,50.819263,8.774011,1
Marburg(Lahn),298734,482748,50.81922,8.775031,
Marburg(Lahn),298734,49280,50.819256,8.77516,
Maribor,,571816,46.562065,15.658011,1
Maribor,571816,499409,46.562065,15.658011,
Marienhafe,154199,616864,53.519238,7.27436,
Marienhafe Bahnhof,,154199,53.519897,7.273198,1
Memmingen,,109084,47.985584,10.18685,1
"Memmingen, Bahnhof ZOB",109084,212797,47.984997,10.186392,
"Memmingen, Bahnhof ZOB",109084,651218,47.985085,10.186419,
Meppen,591721,151405,52.696022,7.298015,
"Meppen, Bahnhof",,591721,52.69565,7.298111,1
Miechow,,197849,50.35442,20.011295,1
Miechow,197849,443667,50.35442,20.011295,
Minden(Westf),431764,25200,52.29061,8.934859,
Minden(Westf),431764,302538,52.290154,8.934859,
"Minden, Bahnhof",,431764,52.29014,8.934734,1
"Minden, Kaiserstraße",,608877,52.289364,8.927862,1
"Minden, Kaiserstraße",608877,470180,52.289368,8.927862,
Mittenwald,,119212,47.44003,11.265709,1
Mittenwald,119212,346520,47.440243,11.265224,
Mittenwald,119212,507640,47.440277,11.265089,
Mittenwald,119212,51412,47.440125,11.26517,
Mittenwald (Gr),,443130,47.39807,11.267443,1
Mittenwald(Gr),443130,511741,47.39807,11.267441,
Montabaur,386376,299264,50.444836,7.825333,
Montabaur Bf,,386376,50.44483,7.825323,1
Mosonmagyarovar,,71242,47.850357,17.266424,1
Mosonmagyarovar,71242,262804,47.850357,17.266424,
Murnau,,164856,47.682266,11.192631,1
Murnau,164856,189536,47.682854,11.193053,
Murnau,164856,620192,47.68262,11.192559,
Mönchengladbach Hbf,255332,16868,51.19659,6.44623,
Mönchengladbach Hbf,255332,352518,51.19677,6.445852,
Mönchengladbach Hbf,255332,502310,51.196808,6.44578,
Mönchengladbach Hbf,255332,548327,51.196697,6.446014,
Mühlacker,422179,187378,48.95299,8.846079,
Mühlacker Bahnhof,,422179,48.95299,8.846079,1
Mülheim Hauptbahnhof,,247785,51.430553,6.886431,1
Mülheim(Ruhr)Hbf,247785,666754,51.431454,6.88679,
Mülheim(Ruhr)Hbf,247785,667054,51.43114,6.886665,
Müllheim (Baden) Bahnhof,,508443,47.809597,7.599487,1
Müllheim im Markgräflerland,508443,470036,47.809742,7.599332,
München Hbf,,328129,48.14029,11.559602,1
München Hbf,328129,104443,48.140232,11.558335,
München Hbf,328129,123429,48.14134,11.556179,
München Hbf,328129,13573,48.139954,11.553799,
München Hbf,328129,147283,48.1399,11.553772,
München Hbf,328129,147764,48.14008,11.553853,
München Hbf,328129,253573,48.14008,11.557518,
München Hbf,328129,266413,48.140026,11.557518,
München Hbf,328129,314137,48.14086,11.557662,
München Hbf,328129,341375,48.140553,11.557608,
München Hbf,328129,346224,48.140385,11.557572,
München Hbf,328129,350761,48.140236,11.557545,
München Hbf,328129,375389,48.140182,11.557527,
München Hbf,328129,389872,48.140705,11.557617,
München Hbf,328129,430303,48.140812,11.557644,
München Hbf,328129,46772,48.140034,11.553826,
München Hbf,328129,509691,48.13988,11.557491,
München Hbf,328129,514351,48.1405,11.55759,
München Hbf,328129,571595,48.14097,11.557671,
München Hbf,328129,587856,48.14141,11.556206,
München Hbf,328129,60016,48.14065,11.557617,
München Hbf,328129,602074,48.141212,11.556161,
München Hbf,328129,609723,48.14033,11.557572,
München Hbf,328129,647554,48.141293,11.556161,
München Hbf,328129,659422,48.139828,11.553727,
München Hbf,328129,660275,48.13994,11.557491,
München Ost,65697,26662,48.127304,11.605533,
München Ost,65697,87281,48.127388,11.605407,
München-Pasing,272180,262415,48.149853,11.461872,
Münster Hauptbahnhof,,521906,51.9567,7.63444,1
Münster(Westf)Hbf,521906,173682,51.956894,7.636452,
Münster(Westf)Hbf,521906,323531,51.95694,7.636075,
Münster(Westf)Hbf,521906,485740,51.95697,7.635815,
Münster(Westf)Hbf,521906,594503,51.95702,7.635446,
Münster(Westf)Hbf,521906,64958,51.95698,7.635743,
Mürzzuschlag,,3818,47.60795,15.677393,1
Mürzzuschlag,3818,450239,47.60795,15.677393,
Nagymaros-Visegrad,,338411,47.790894,18.9588,1
Nagymaros-Visegrad,338411,490622,47.790894,18.9588,
Naumburg(Saale)Hbf,,425541,51.16307,11.796984,1
Naumburg(Saale)Hbf,425541,496492,51.16307,11.796984,
Neu-Ulm,407609,412971,48.39352,10.005831,
Neu-Ulm Bahnhof,,407609,48.39346,10.004789,1
Neumarkt am Wallersee,,296665,47.95532,13.225574,1
Neumarkt am Wallersee,296665,229338,47.95532,13.225574,
Neumünster,,277633,54.07566,9.979757,1
Neumünster,277633,98609,54.075672,9.979839,
Neuss Hauptbahnhof,,189075,51.203526,6.683106,1
Neuss Hbf,189075,11901,51.20435,6.684527,
Neuss Hbf,189075,602554,51.205223,6.684885,
Neustadt(Weinstr)Hbf,628501,244101,49.34955,8.141557,
"Neustadt, Hauptbahnhof",,628501,49.35004,8.139985,1
"Neustadt, Hauptbahnhof",628501,388756,49.349648,8.141584,
Niebüll,,316981,54.78956,8.834768,1
Niebüll,316981,192428,54.789566,8.834805,
Niebüll,316981,243343,54.789547,8.834721,
Niebüll neg,,619700,54.78955,8.832959,1
Niebüll neg,619700,115486,54.78955,8.832959,
Nienburg(Weser),,472534,52.645344,9.217862,1
Nienburg(Weser),472534,313512,52.645363,9.2179,
Norddeich,224800,210634,53.62158,7.160824,
Norddeich Mole,243719,238640,53.62432,7.158739,
Norddeich(Norden),,224800,53.62152,7.160884,1
Norddeich(Norden) Mole,,243719,53.62432,7.158739,1
Norden,99731,160656,53.588104,7.219352,
Norden(Ostfriesl),,99731,53.588013,7.219321,1
Nove Zamky,,270952,47.995003,18.173956,1
Nove Zamky,270952,644484,47.995003,18.173956,
Nyborg st,,195895,55.314068,10.802921,1
Nyborg st,195895,27741,55.314068,10.802921,
Nürnberg Hbf,,176379,49.445614,11.082992,1
Nürnberg Hbf,176379,100701,49.445053,11.08248,
Nürnberg Hbf,176379,174380,49.445267,11.082363,
Nürnberg Hbf,176379,238020,49.44541,11.082291,
Nürnberg Hbf,176379,248709,49.445545,11.082228,
Nürnberg Hbf,176379,337236,49.44475,11.082632,
Nürnberg Hbf,176379,346924,49.445644,11.082165,
Nürnberg Hbf,176379,378597,49.444798,11.082623,
Nürnberg Hbf,176379,459477,49.44801,11.082327,
Nürnberg Hbf,176379,487778,49.44516,11.082417,
Oberhausen Hbf,,351479,51.474,6.853346,1
Oberhausen Hbf,351479,134981,51.474415,6.851567,
Oberhausen Hbf,351479,386286,51.474346,6.851693,
Oberhausen Hbf,351479,524337,51.474285,6.851846,
Oberhausen Hbf,351479,536635,51.474876,6.851588,
Oberhausen Hbf,351479,91598,51.474583,6.851163,
Oberndorf (Neckar) Bahnhof,,39398,48.29559,8.575291,1
Oberndorf(Neckar),39398,125478,48.29567,8.575514,
Oberndorf(Neckar),39398,291670,48.2955,8.575479,
Oberndorf(Neckar),39398,417364,48.295506,8.575614,
Oberstdorf,,376338,47.411034,10.278092,1
Oberstdorf,376338,292803,47.411537,10.278299,
Oberstdorf,376338,618295,47.411446,10.278416,
Oberstdorf Busbahnhof,376338,310511,47.41078,10.277203,
Odense st,,467167,55.401775,10.386005,1
Odense st,467167,216122,55.401775,10.386005,
Offenburg,151902,640844,48.476475,7.946723,
Offenburg Bahnhof,,151902,48.476387,7.946587,1
Oldenburg(Oldb)Hbf,418883,150420,53.14432,8.222713,
"Oldenburg, Hauptbahnhof",,418883,53.144222,8.222684,1
Olten,,146174,47.351936,7.9077,1
Olten,146174,120875,47.351936,7.9077,
Opoczno Poludnie,,175732,51.358517,20.231709,1
Opoczno Poludnie,175732,592491,51.358517,20.231709,
Opole Glowne,,444583,50.661514,17.925863,1
Opole Glowne,444583,401529,50.661514,17.925863,
Osnabrück Hbf,,620913,52.27313,8.060825,1
Osnabrück Hbf,620913,154395,52.273598,8.059918,
Osnabrück Hbf,620913,263411,52.272747,8.061333,
Osnabrück Hbf,620913,474703,52.272697,8.061522,
Osnabrück Hbf,620913,603400,52.27285,8.061781,
Ostbahnhof,,65697,48.12815,11.604545,1
Ostbahnhof,65697,265164,48.128296,11.604329,
Ostrava hl.n.,,217793,49.852085,18.267262,1
Ostrava hl.n.,217793,293141,49.852085,18.267262,
Ostseebad Binz,188297,300536,54.405552,13.599532,
Ostseebad Binz,188297,398674,54.4056,13.599694,
Ostseebad Binz,188297,520759,54.40565,13.599874,
Oswiecim,,267103,50.041504,19.199724,1
Oswiecim,267103,123074,50.041504,19.199724,
Padborg st,,104849,54.82425,9.358803,1
Padborg st,104849,581609,54.82425,9.358803,
Paderborn Hbf,,215337,51.71298,8.740509,1
Paderborn Hbf,215337,408300,51.712894,8.740338,
Paderborn Hbf,215337,541033,51.71298,8.740505,
Paderborn Hbf,215337,665349,51.712795,8.740401,
Padova,,659108,45.417824,11.88062,1
Padova,659108,7267,45.417824,11.88062,
Papenburg(Ems),241378,505015,53.089706,7.386708,
"Papenburg, Bahnhof",,241378,53.090424,7.388122,1
Pardubice hl.n.,,412239,50.03174,15.756211,1
Pardubice hl.n.,412239,111106,50.03174,15.756211,
Paris Est,,109857,48.876976,2.35912,1
Paris Est,109857,186047,48.876976,2.35912,
Pasewalk,,473039,53.515038,13.989293,1
Pasewalk,473039,395397,53.515354,13.988875,
Pasewalk,473039,510243,53.51519,13.988988,
Pasing,,272180,48.149143,11.460697,1
Pasing,272180,328252,48.14933,11.458901,
Pasing,272180,473942,48.149197,11.459296,
Passau Hbf,,73609,48.57363,13.45078,1
"Passau, Hbf",73609,173894,48.574352,13.452756,
"Passau, Hbf",73609,187666,48.574203,13.451643,
Peine,570320,20873,52.31896,10.232197,
Peine,570320,319805,52.318916,10.231892,
"Peine, Bahnhof",,570320,52.318928,10.232422,1
Pforzheim Hauptbahnhof,,473291,48.89365,8.703453,1
Pforzheim Hbf,473291,299818,48.89414,8.702699,
Pforzheim Hbf,473291,542967,48.89421,8.702699,
Plattling,,330730,48.77962,12.863938,1
"Plattling, Bahnhof",330730,165774,48.778957,12.864414,
"Plattling, Bahnhof",330730,657724,48.778976,12.864647,
"Plett., Bahnhof",,565326,51.231934,7.86891,1
Plettenberg,565326,256621,51.23197,7.868424,
Plettenberg,565326,614309,51.231853,7.869044,
Plochingen,,176475,48.71294,9.411299,1
Plochingen,176475,641479,48.71296,9.411353,
Potsdam Hbf,643587,320895,52.391422,13.066721,
Potsdam Hbf,643587,73933,52.391666,13.066749,
Poznan Glowny,,239184,52.401993,16.91087,1
Poznan Glowny,239184,172571,52.401993,16.91087,
Pragersko,,635049,46.39538,15.662046,1
Pragersko,635049,302959,46.39538,15.662046,
Praha hl.n.,,200292,50.08306,14.436039,1
Praha hl.n.,200292,369784,50.08306,14.436039,
Praha-Holesovice,,327144,50.110214,14.440013,1
Praha-Holesovice,327144,167587,50.110214,14.440013,
Prenzlau,522921,30174,53.321636,13.866409,
Prenzlau,522921,492165,53.32162,13.86654,
"Prenzlau, Bahnhof",,522921,53.321613,13.866558,1
Prien am Chiemsee,,323817,47.8547,12.34685,1
Prien am Chiemsee,323817,563472,47.854458,12.346733,
Prien am Chiemsee,323817,595037,47.85454,12.346697,
Przemysl Glowny,,661455,49.78366,22.776363,1
Przemysl Glowny,661455,157084,49.78366,22.776363,
Przemysl Zasanie,,84443,49.79363,22.774115,1
Przemysl Zasanie,84443,615624,49.79363,22.774115,
Przeworsk,,469707,50.067215,22.503357,1
Przeworsk,469707,226411,50.067215,22.503357,
Pörtschach am Wörther See,,646399,46.6362,14.146231,1
Pörtschach am Wörther See,646399,583708,46.6362,14.146231,
RV Bahnhof,,619225,47.784554,9.606673,1
Radolfzell,544296,253500,47.735676,8.969058,
Radolfzell,544296,666259,47.735714,8.969103,
Radolfzell Bahnhof,,544296,47.735924,8.969031,1
Radstadt,,211345,47.38424,13.467809,1
Radstadt,211345,206110,47.38424,13.467809,
Rankweil,,335273,47.273018,9.637252,1
Rankweil,335273,590321,47.273018,9.637252,
Rathenow,343599,375371,52.59958,12.354209,
"Rathenow, Bahnhof",,343599,52.600105,12.354617,1
Ravensburg,619225,322883,47.78441,9.605964,
Ravensburg,619225,611462,47.784374,9.606126,
Recklinghausen Hbf,,327506,51.61598,7.201371,1
Recklinghausen Hbf,327506,123880,51.61667,7.203509,
Regensburg Hbf,,287528,49.01167,12.099624,1
Regensburg Hbf,287528,483050,49.011482,12.099741,
Regensburg Hbf,287528,66568,49.012466,12.100397,
Remagen,263533,610252,50.577003,7.23027,
Remagen Bf,,263533,50.57721,7.229767,1
Rendsburg,,464260,54.302097,9.671307,1
Rendsburg,464260,560464,54.302155,9.671009,
Rheine,653895,14980,52.275837,7.434987,
Rheine,653895,21487,52.275906,7.435158,
Rheine,653895,345820,52.27575,7.434754,
"Rheine, Bahnhof",,653895,52.2763,7.43426,1
Rheinfelden(CH),,273076,47.551136,7.792434,1
Rheinfelden(CH),273076,451700,47.551136,7.792434,
Rheydt Hbf,456722,206617,51.162872,6.439456,
Ribnitz-Damgarten West,,418286,54.23918,12.436968,1
Ribnitz-Damgarten West,418286,362997,54.239265,12.437355,
Ribnitz-Damgarten West,418286,469220,54.2392,12.437373,
Riesa,470346,381270,51.30983,13.288293,
Riesa,470346,504973,51.309734,13.288329,
Riesa,470346,588443,51.309654,13.287734,
Riesa Busbf/Bahnhof,,470346,51.3094,13.288383,1
Ringsheim/Europa-Park,,438757,48.248672,7.773023,1
Ringsheim/Europa-Park,438757,561714,48.248688,7.772987,
Ringsted st,,154119,55.438038,11.786155,1
Ringsted st,154119,239799,55.438038,11.786155,
Roedekro st,,337814,55.069687,9.332754,1
Roedekro st,337814,529972,55.069687,9.332754,
Rosenheim,,115475,47.851257,12.118983,1
Rosenheim,115475,142475,47.851257,12.11795,
Rosenheim,115475,157369,47.850994,12.118372,
Rosenheim,115475,45259,47.85108,12.118516,
Rosenheim,115475,468963,47.851177,12.117824,
Rosenheim,115475,592791,47.851078,12.118103,
Rosenheim,115475,6082,47.851154,12.118264,
Rostock Hauptbahnhof,,281256,54.07818,12.130724,1
Rostock Hbf,281256,174034,54.077587,12.132206,
Rostock Hbf,281256,243146,54.078526,12.1304,
Rostock Hbf,281256,396368,54.07861,12.130176,
Rostock Hbf,281256,516691,54.078552,12.130059,
Rostock Hbf,281256,669211,54.078262,12.131398,
Rotterdam Centraal,,297363,51.9248,4.468769,1
Rotterdam Centraal,297363,152623,51.9248,4.468769,
Rottweil,263405,312737,48.165302,8.639295,
Rottweil,263405,32059,48.16566,8.639871,
Rottweil,263405,343459,48.165527,8.63988,
Rottweil,263405,516528,48.165474,8.63988,
Rottweil Bahnhof,,263405,48.165253,8.640661,1
Rovereto,,255959,45.891174,11.034067,1
Rovereto,255959,268873,45.89096,11.033601,
Rudolstadt (Thüringen),,26324,50.718,11.339156,1
Rudolstadt(Thür),26324,12050,50.71793,11.338899,
Rzepin,,640876,52.350224,14.815073,1
Rzepin,640876,568072,52.350224,14.815073,
Rzeszow Glowny,,494434,50.043114,22.006798,1
Rzeszow Glowny,494434,487048,50.043114,22.006798,
S Bernau Bhf,,72021,52.675686,13.592695,1
S Charlottenburg Bhf (Berlin),,409720,52.50473,13.303862,1
S Königs Wusterhausen Bhf,,96925,52.296963,13.631305,1
S Königs Wusterhausen Bhf,96925,359723,52.296642,13.631479,
S Ostbahnhof (Berlin),,195151,52.51033,13.435086,1
S Ostkreuz Bhf (Berlin),,326704,52.503113,13.469221,1
S Potsdam Hauptbahnhof,,643587,52.391445,13.067157,1
S Spandau Bhf (Berlin),,483088,52.534798,13.197477,1
S Südkreuz Bhf (Berlin),,97797,52.475502,13.365552,1
S Wannsee Bhf (Berlin),,257812,52.421726,13.178932,1
S+U Berlin Hauptbahnhof,,194006,52.525604,13.369075,1
S+U Gesundbrunnen Bhf (Berlin),,409515,52.548637,13.388372,1
S+U Lichtenberg Bhf (Berlin),,348438,52.510674,13.498359,1
S+U Zoologischer Garten Bhf (Berlin),,340,52.50692,13.332707,1
Saalfeld (Saale),,16884,50.65049,11.374546,1
Saalfeld(Saale),16884,117453,50.650272,11.374583,
Saalfelden,,613968,47.426857,12.829765,1
Saalfelden,613968,650741,47.426857,12.829765,
Saarbrücken Hbf,,528362,49.24107,6.99102,1
Saarbrücken Hbf,528362,373550,49.24148,6.991045,
Saarbrücken Hbf,528362,539373,49.241085,6.990951,
Saarbrücken Hbf,528362,618248,49.241337,6.991009,
Saarbrücken Hbf,528362,64557,49.241283,6.991011,
Salzburg Hbf,,520959,47.81305,13.04582,1
Salzburg Hbf,520959,384157,47.81305,13.04582,
Salzburg Süd,,347696,47.770226,13.078491,1
Salzburg Süd,347696,208186,47.770226,13.078491,
Salzwedel,,379335,52.858112,11.162035,1
Salzwedel,379335,244403,52.858112,11.162035,
Sargans,,196374,47.044823,9.44626,1
Sargans,196374,593583,47.044823,9.44626,
Schaffhausen,,157814,47.69828,8.632756,1
Schaffhausen,157814,462807,47.69828,8.632756,
Schladming,,238215,47.393826,13.678151,1
Schladming,238215,473051,47.393826,13.678151,
Schleswig,,258039,54.499516,9.538149,1
Schleswig,258039,528455,54.49946,9.53814,
Schorndorf,,98363,48.80694,9.52569,1
Schorndorf,98363,292850,48.80708,9.52578,
Schorndorf,98363,66236,48.806984,9.525861,
Schwarzach-St.Veit,,168475,47.318535,13.154464,1
Schwarzach-St.Veit,168475,546638,47.318535,13.154464,
Schwerin Hauptbahnhof,,306547,53.6347,11.407499,1
Schwerin Hbf,306547,163437,53.63563,11.407544,
Schwerin Hbf,306547,314720,53.635628,11.407445,
Schwerin Hbf,306547,402451,53.63474,11.407455,
Schwäbisch Gmünd,411759,240210,48.80097,9.787504,
Schwäbisch Gmünd,411759,40345,48.801086,9.788097,
Schärding,,286145,48.46372,13.442511,1
Schärding,286145,219761,48.46372,13.442511,
Schöna(Gr),,22227,50.860054,14.222133,1
Schöna(Gr),22227,468104,50.860054,14.222133,
Seefeld in Tirol,,511994,47.32873,11.189483,1
Seefeld in Tirol,511994,72445,47.32873,11.189483,
Selzthal,,582046,47.550243,14.312841,1
Selzthal,582046,632127,47.550243,14.312841,
Semmering,,671526,47.639553,15.830923,1
Semmering,671526,300690,47.639553,15.830923,
Sevnica,,596390,46.009678,15.301231,1
Sevnica,596390,2097,46.009678,15.301231,
Siegburg Bf,,550338,50.793907,7.203024,1
Siegburg/Bonn,550338,347781,50.79388,7.202485,
Siegburg/Bonn,550338,38525,50.79396,7.20262,
Siegen Hbf,,646981,50.87594,8.016512,1
Siegen Hbf,646981,100366,50.876507,8.01715,
Siegen Hbf,646981,222103,50.876408,8.017311,
Siegen Hbf,646981,572734,50.87594,8.016508,
Siegen-Weidenau,578573,351016,50.8958,8.029959,
Siegen-Weidenau,578573,403085,50.895786,8.02978,
Siegen-Weidenau Bf,,578573,50.895966,8.029843,1
Singen (Htw) Bahnhof,,658146,47.75903,8.841408,1
Singen(Hohentwiel),658146,168003,47.75876,8.841471,
Singen(Hohentwiel),658146,366096,47.75892,8.841381,
Singen(Hohentwiel),658146,39488,47.7586,8.840231,
Singen(Hohentwiel),658146,537004,47.75903,8.841219,
Sissach,,255110,47.46264,7.811977,1
Sissach,255110,354852,47.46264,7.811977,
Skawina,,338722,49.977108,19.821957,1
Skawina,338722,16476,49.977108,19.821957,
Soest,353411,68852,51.5783,8.105409,
Soest,353411,93214,51.57819,8.105337,
"Soest, Bahnhof",,353411,51.57842,8.104592,1
Solingen Hbf,,257433,51.16073,7.003688,1
Solingen Hbf,257433,105100,51.161087,7.003985,
Solingen Hbf,257433,153761,51.161083,7.004119,
Solingen Hbf,257433,82714,51.160767,7.004187,
Sonthofen,,142762,47.51324,10.272343,1
Sonthofen,142762,320584,47.513405,10.272181,
Sopot,,152069,54.440166,18.562323,1
Sopot,152069,435260,54.440166,18.562323,
Spaichingen,611076,476514,48.06899,8.740147,
Spaichingen,611076,539920,48.068832,8.741704,
Spaichingen,611076,77559,48.068996,8.741704,
Spaichingen Bahnhof,,611076,48.06909,8.74094,1
Spiez,,632865,46.686398,7.680103,1
Spiez,632865,405503,46.686398,7.680103,
Spittal-Millstättersee,,152146,46.7957,13.487416,1
Spittal-Millstättersee,152146,148838,46.7957,13.487416,
St Georgen(Schwarzw),57478,193880,48.123898,8.342187,
St Georgen(Schwarzw),57478,333315,48.123955,8.342187,
St. Anton am Arlberg,,127582,47.12733,10.267088,1
St. Anton am Arlberg,127582,74950,47.12733,10.267088,
St. Gallen(CH),,629153,47.42318,9.369897,1
St. Gallen(CH),629153,197229,47.42318,9.369897,
St. Georgen (Schwarzw) Bahnhof,,57478,48.123844,8.342133,1
St. Johann im Pongau,,481877,47.348377,13.194961,1
St. Johann im Pongau,481877,383945,47.348377,13.194961,
St. Johann in Tirol,,386638,47.51962,12.430775,1
St. Johann in Tirol,386638,190690,47.51962,12.430775,
St. Margrethen SG,,385397,47.453217,9.638262,1
St. Margrethen SG,385397,420464,47.453217,9.638262,
St. Valentin,,390287,48.179146,14.521846,1
St. Valentin,390287,622080,48.179146,14.521846,
St.Michael in Obersteiermark,,425166,47.346622,15.009187,1
St.Michael in Obersteiermark,425166,340494,47.346622,15.009187,
St.Pölten Hbf,,676486,48.208275,15.624683,1
St.Pölten Hbf,676486,41905,48.208275,15.624683,
Stadt Rottenmann,,324299,47.52723,14.367174,1
Stadt Rottenmann,324299,42966,47.52723,14.367174,
Stadtroda,,407938,50.86817,11.723213,1
Stadtroda,407938,20019,50.868217,11.722792,
Stainach-Irdning,,172173,47.529194,14.106753,1
Stainach-Irdning,172173,277517,47.529194,14.106753,
Stein-Säckingen,,220440,47.541477,7.948573,1
Stein-Säckingen,220440,605663,47.541477,7.948573,
Steinach (b Rothenburg o.d.T.),,487368,49.45322,10.273538,1
Steinach(bei Rothenburg ob der Tauber),487368,578707,49.453743,10.273295,
Steinach(bei Rothenburg ob der Tauber),487368,601522,49.453003,10.274113,
Stendal Hbf,,654503,52.594723,11.854412,1
Stendal Hbf,654503,138466,52.594723,11.855409,
Stendal Hbf,654503,195748,52.594585,11.855459,
Stendal Hbf,654503,262529,52.594784,11.855384,
Stendal Hbf,654503,510271,52.59494,11.85532,
Stendal Hbf,654503,516898,52.594658,11.855434,
Stendal Hbf,654503,9984,52.594837,11.855358,
Stralsund Hauptbahnhof,,470994,54.309105,13.077773,1
Stralsund Hbf,470994,210688,54.30812,13.078464,
Stralsund Hbf,470994,329960,54.308624,13.077321,
Stralsund Hbf,470994,412628,54.308174,13.078698,
Stralsund Hbf,470994,469671,54.308075,13.078294,
Stralsund Hbf,470994,550571,54.30815,13.07859,
Stralsund Hbf,470994,649226,54.30801,13.078087,
Stralsund Hbf,470994,663668,54.308037,13.078177,
Strasbourg,,261868,48.58534,7.734067,1
Strasbourg,261868,393805,48.58534,7.734067,
Straubing,,609256,48.877007,12.574114,1
Straubing,609256,586580,48.876938,12.574492,
Sturovo,,41662,47.800125,18.67992,1
Sturovo,41662,589346,47.800125,18.67992,
Stuttgart Hbf,206091,147648,48.784084,9.181635,
Stuttgart Hbf,206091,62746,48.784748,9.183217,
Stuttgart-Vaihingen,329745,174869,48.72628,9.113226,
Sulz (Neckar) Bahnhof,,234975,48.367237,8.637724,1
Sulz(Neckar),234975,468457,48.366486,8.636748,
Sulz(Neckar),234975,651160,48.367573,8.637867,
Swiebodzin,,673283,52.245144,15.53954,1
Swiebodzin,673283,364308,52.245144,15.53954,
Szob,,98460,47.821,18.862057,1
Szob,98460,448771,47.821,18.862057,
Szob(Gr),,12529,47.824898,18.844774,1
Szob(Gr),12529,610349,47.824898,18.844774,
Tarnow,,187226,50.0054,20.97418,1
Tarnow,187226,617548,50.0054,20.97418,
Tatabanya,,97995,47.58493,18.393612,1
Tatabanya,97995,620941,47.58493,18.393612,
Tczew,,110069,54.09732,18.790155,1
Tczew,110069,109050,54.09732,18.790155,
Telfs-Pfaffenhofen,,61938,47.30071,11.078869,1
Telfs-Pfaffenhofen,61938,485137,47.30071,11.078869,
Thun,,232989,46.754692,7.629414,1
Thun,232989,386359,46.754692,7.629414,
Tinglev st,,379851,54.936172,9.258234,1
Tinglev st,379851,455247,54.936172,9.258234,
Traunstein,,245217,47.86973,12.638802,1
Traunstein,245217,3645,47.868744,12.638541,
Traunstein Bahnhof,245217,309396,47.86896,12.638703,
Trento,,564156,46.07229,11.1189,1
Trento,564156,640234,46.07229,11.1189,
Treuchtlingen,,521872,48.96127,10.908162,1
Treuchtlingen,521872,117087,48.961014,10.908198,
Treuchtlingen,521872,214920,48.96105,10.907919,
Treuchtlingen,521872,568848,48.961037,10.907991,
Treysa,,321465,50.91066,9.185673,1
Treysa,321465,150401,50.91066,9.185673,
Tullnerfeld,,124359,48.295235,15.996536,1
Tullnerfeld,124359,23765,48.295235,15.996536,
Tuttlingen,158445,503420,47.980232,8.798486,
Tuttlingen,158445,537107,47.98054,8.798271,
Tuttlingen,158445,642456,47.98058,8.798542,
Tuttlingen Bahnhof,,158445,47.980335,8.79942,1
Tutzing,,670843,47.9074,11.273731,1
Tutzing,670843,245707,47.907097,11.272716,
Tutzing,670843,307157,47.907143,11.27289,
Tutzing,670843,535120,47.90803,11.274117,
Uelzen,,161900,52.96979,10.553017,1
Uelzen,161900,464725,52.969837,10.55279,
Ulm Hauptbahnhof,,178296,48.399364,9.984146,1
Ulm Hbf,178296,171668,48.399353,9.982645,
Ulm Hbf,178296,188026,48.399345,9.982816,
Ulm Hbf,178296,355541,48.399345,9.982933,
Ulm Hbf,178296,494219,48.3994,9.982608,
Usti nad Labem hl.n.,,461455,50.65956,14.044728,1
Usti nad Labem hl.n.,461455,316619,50.65956,14.044728,
Usti nad Labem-Strekov,,511737,50.64979,14.048374,1
Usti nad Labem-Strekov,511737,301026,50.64979,14.048374,
Utrecht Centraal,,627570,52.089397,5.109861,1
Utrecht Centraal,627570,149396,52.089397,5.109861,
Vac,,405517,47.782726,19.13306,1
Vac,405517,42106,47.782726,19.13306,
Vaihingen,,329745,48.72698,9.113912,1
Vaihingen (E),,246760,48.94815,8.957578,1
Vaihingen(Enz),246760,192831,48.948746,8.956868,
Vaihingen(Enz),246760,28143,48.948555,8.956527,
Vaihingen(Enz),246760,498690,48.948116,8.957632,
Vamdrup st,,671291,55.428093,9.286454,1
Vamdrup st,671291,623121,55.428093,9.286454,
Velden am Wörther See,,143086,46.62005,14.044838,1
Velden am Wörther See,143086,223318,46.62005,14.044838,
Velgast,,620908,54.277256,12.803149,1
Velgast,620908,329521,54.277435,12.803131,
Venezia Mestre,,541665,45.481907,12.231898,1
Venezia Mestre,541665,92469,45.481907,12.231898,
Venezia Santa Lucia,,127848,45.441395,12.320459,1
Venezia Santa Lucia,127848,241942,45.441395,12.320459,
Venlo,,305208,51.364407,6.171838,1
Venlo,305208,648334,51.364407,6.171838,
Venlo(Gr),,47431,51.340893,6.192712,1
Venlo(Gr),47431,212588,51.340893,6.192712,
Verden(Aller),,430596,52.920864,9.237906,1
Verden(Aller),430596,251545,52.92083,9.237933,
Verona Porta Nuova,,566292,45.428658,10.982739,1
Verona Porta Nuova,566292,565845,45.428658,10.982739,
Vicenza,,327292,45.5411,11.540777,1
Vicenza,327292,133562,45.5411,11.540777,
Villach Hbf,,141877,46.618626,13.848536,1
Villach Hbf,141877,168031,46.618626,13.848536,
Villingen Busbahnhof,,665873,48.057804,8.465427,1
Villingen(Schwarzw),665873,111476,48.05771,8.465588,
Villingen(Schwarzw),665873,95843,48.057617,8.465553,
Visp,,606297,46.29403,7.881465,1
Visp,606297,652704,46.29403,7.881465,
Vojens st,,197531,55.248478,9.304915,1
Vojens st,197531,261607,55.248478,9.304915,
Vöcklabruck,,57726,48.010067,13.663703,1
Vöcklabruck,57726,470430,48.010067,13.663703,
Wabern(Bz Kassel),,10802,51.103134,9.35804,1
Wabern(Bz Kassel),10802,314338,51.103134,9.35804,
Wanne-Eickel Hbf,57963,133105,51.531303,7.166328,
Wanne-Eickel Hbf,57963,307710,51.531445,7.166122,
Wanne-Eickel Hbf,57963,420064,51.531357,7.166247,
Warburg(Westf),14732,372063,51.49288,9.164163,
Warburg(Westf),14732,612714,51.492992,9.164235,
"Warburg, Bahnhof",,14732,51.492954,9.163849,1
Warszawa Centralna,,126752,52.22886,21.003235,1
Warszawa Centralna,126752,440471,52.22886,21.003235,
Warszawa Wschodnia,,302913,52.25155,21.052336,1
Warszawa Wschodnia,302913,500658,52.25155,21.052336,
Warszawa Zachodnia,,298585,52.21997,20.965246,1
Warszawa Zachodnia,298585,261384,52.21997,20.965246,
Weil am Rhein,601228,31385,47.59364,7.608497,
Weil am Rhein,601228,379135,47.59368,7.608245,
Weil am Rhein Bahnhof,,601228,47.593693,7.608739,1
Weilheim,,309534,47.845108,11.143502,1
Weilheim(Oberbay),309534,57238,47.845417,11.143017,
Weilheim(Oberbay),309534,634294,47.845955,11.14423,
Weimar,,223542,50.991486,11.326463,1
Weimar,223542,254574,50.991486,11.326458,
Weinheim(Bergstr)Hbf,441615,190922,49.553547,8.665607,
Weinheim(Bergstr)Hbf,441615,208844,49.55361,8.665401,
"Weinheim, Hauptbahnhof",,441615,49.55333,8.665697,1
Weißenfels,,613436,51.204617,11.970926,1
Weißenfels,613436,82338,51.204617,11.970926,
Wels Hbf,,653456,48.166077,14.026569,1
Wels Hbf,653456,373827,48.166077,14.026569,
Werdohl,604905,124161,51.25952,7.757734,
Werdohl,604905,671663,51.259476,7.757887,
"Werdohl, Bahnhof",,604905,51.259487,7.757545,1
Werfen,,217847,47.4726,13.195183,1
Werfen,217847,490264,47.4726,13.195183,
Westerland(Sylt),544626,347820,54.906853,8.31098,
Westerland(Sylt) ZOB/Bahnhof,,544626,54.906895,8.310884,1
Westerstede-Ocholt,,260086,53.20229,7.886531,1
Westerstede-Ocholt,260086,626029,53.202248,7.886519,
Wetzlar,477143,623420,50.56566,8.504213,
Wetzlar Bahnhof,,477143,50.56566,8.504213,1
Wien Hauptbahnhof,,265530,48.185104,16.377113,1
Wien Hbf,265530,161705,48.1851,16.377113,
Wien Hütteldorf,,74760,48.197258,16.26125,1
Wien Hütteldorf,74760,234089,48.197258,16.26125,
Wien Meidling,,195142,48.17445,16.333088,1
Wien Meidling,195142,632176,48.17445,16.333088,
Wiener Neustadt Hbf,,73576,47.81056,16.233187,1
Wiener Neustadt Hbf,73576,173995,47.81056,16.233187,
Wiesbaden Hauptbahnhof,,285687,50.069477,8.244631,1
Wiesbaden Hbf,285687,462795,50.06972,8.243677,
Wiesbaden Hbf,285687,68413,50.069477,8.244631,
Wiesloch-Walldorf,615271,314241,49.29135,8.664146,
Wiesloch-Walldorf,615271,328169,49.291042,8.664242,
Wiesloch-Walldorf,615271,448686,49.29107,8.664053,
"Wiesloch-Walldorf, Bf",,615271,49.291016,8.664449,1
Winterthur,,328383,47.500336,8.723821,1
Winterthur,328383,645225,47.500336,8.723821,
Witten Hbf,,416806,51.43542,7.330217,1
Witten Hbf,416806,254703,51.435375,7.329327,
Witten Hbf,416806,489413,51.435436,7.32948,
Wittenberge,386469,552156,53.003883,11.762578,
Wittenberge,386469,6687,53.004498,11.762504,
Wittenberge,386469,76437,53.00387,11.762465,
"Wittenberge, Bahnhof",,386469,53.002373,11.763205,1
Wloszczowa Polnoc,,153297,50.85811,19.947002,1
Wloszczowa Polnoc,153297,291068,50.85811,19.947002,
Wolfsburg Hbf,509847,341356,52.429382,10.787698,
Wolfsburg Hbf,509847,590849,52.429665,10.787913,
"Wolfsburg, Hauptbahnhof",,509847,52.42946,10.78776,1
Worms Hbf,605350,257673,49.63501,8.356596,
Worms Hbf,605350,646393,49.634727,8.356596,
"Worms, Hauptbahnhof",,605350,49.635113,8.356955,1
Wroclaw Glowny,,584175,51.09808,17.037088,1
Wroclaw Glowny,584175,289579,51.09808,17.037088,
Wuppertal Hbf,,652462,51.25508,7.149323,1
Wuppertal Hbf,652462,254867,51.254417,7.150114,
Wuppertal Hbf,652462,397963,51.254364,7.149543,
Wuppertal Hbf,652462,488795,51.254597,7.150042,
Wörgl Hbf,,224986,47.4918,12.060581,1
Wörgl Hbf,224986,468725,47.4918,12.060581,
Würzburg Hbf,,285638,49.801796,9.93578,1
Würzburg Hbf,285638,192365,49.80213,9.935987,
Würzburg Hbf,285638,253963,49.801796,9.93578,
Würzburg Hbf,285638,33733,49.80226,9.936041,
Würzburg Hbf,285638,378977,49.801895,9.935897,
Würzburg Hbf,285638,410442,49.802,9.935924,
Zabrze,,549891,50.30528,18.786947,1
Zabrze,549891,216805,50.30528,18.786947,
Zagreb Glavni kolodvor,,616371,45.80444,15.978705,1
Zagreb Glavni kolodvor,616371,632225,45.80444,15.978705,
Zapresic,,461120,45.844494,15.813187,1
Zapresic,461120,768,45.844494,15.813187,
Zbaszynek,,234621,52.242508,15.818092,1
Zbaszynek,234621,671687,52.242508,15.818092,
Zebrzydowice,,102562,49.87049,18.623697,1
Zebrzydowice,102562,586038,49.87049,18.623697,
Zebrzydowice(Gr),,468169,49.884163,18.57093,1
Zebrzydowice(Gr),468169,205225,49.884163,18.57093,
Zell am See,,522557,47.32052,12.796571,1
Zell am See,522557,646261,47.32052,12.796571,
Zidani Most,,134586,46.085587,15.170324,1
Zidani Most,134586,16420,46.085587,15.170324,
Zielona Gora Glowna,,260533,51.947437,15.513709,1
Zielona Gora Glowna,260533,92692,51.947437,15.513709,
Zürich Flughafen,,428815,47.450386,8.562402,1
Zürich Flughafen,428815,531498,47.450386,8.562402,
Zürich HB,,630770,47.378178,8.540212,1
Zürich HB,630770,117105,47.378178,8.540212,
Züssow,326985,12800,53.972515,13.550179,
Züssow,326985,183110,53.97388,13.548191,
Züssow,326985,581784,53.97243,13.549999,
Züssow Bahnhof,,326985,53.97299,13.549442,1
Ötztal,,663286,47.238483,10.859114,1
Ötztal,663286,393297,47.238483,10.859114,
Übersee,,285048,47.822044,12.487337,1
Übersee,285048,524200,47.82184,12.486681,
Übersee,285048,87843,47.8221,12.487651,
